,stop_id,stop_code,stop_name,stop_desc,stop_lat,stop_lon,location_type,parent_station,wheelchair_boarding,platform_code
74,8602623,,Nakskov St.,,54.833248872169,11.138192792463,0,,,
257,8602601,,Avnede St.,,54.829044870771,11.21521502896,0,,,
359,8602645,,Søllested St.,,54.810959183161,11.27016062816,0,,,
5818,46419,,Bandholmvej (Kragenæsvej),,54.903698755816,11.332316387356,0,,,
5831,46447,,Kragenæsvej 47 (Kragenæsvej),,54.915064181973,11.349873203548999,0,,,
6094,47320,,Nakskov Byskole (Nørrevold),,54.832502075560996,11.133637561228001,0,,,
6095,47352,,Vink - Kramnitsevej/Diget (Diget),,54.709411516149,11.247358485099001,0,,,
6191,47726,,Provstelunden (Bymøllevej),,54.904308924245996,11.110198280045,0,,,
6193,47728,,Grevevænget (Tårsvej),,54.876212934094,11.089259844902001,0,,,
6194,47729,,Grevevænget (Tårsvej),,54.876194704875005,11.089274489856,0,,,
6195,47730,,Bøgetvej (Ørnekulevej),,54.928799232211,11.192646335046,0,,,
6196,47731,,Bjælkehovedvej (Toftevej),,54.924856167841995,11.156316389459,0,,,
6197,47732,,Bjælkehovedvej (Toftevej),,54.925199627851,11.156209906995,0,,,
6199,47734,,Bøgelunden (H C Skottesvej),,54.9107822878,11.215131903779,0,,,
6200,47735,,Nylandsvej (Hovedgaden),,54.91439548177,11.222039909085,0,,,
6201,47736,,Nylandsvej (Hovedgaden),,54.914518917771,11.222171540488999,0,,,
6202,47737,,Egholmvej (Viemosevej),,54.923424810734,11.283842308864,0,,,
6203,47738,,Boligselskabet (Bandholmvej),,54.908063561386996,11.31230264339,0,,,
6349,48050,,Sukkerfabrikken (Maribovej),,54.831484733036,11.150027039665,0,,,
6351,48052,,Posthusvej (Vesterborgvej),,54.856103089869,11.272992523921001,0,,,
6381,48097,,Branderslevvej (Tårsvej),,54.861798592027,11.115534735102,0,,,
6382,48098,,Højagervej (Bøgetvej),,54.924491993562,11.191241442806001,0,,,
6383,48099,,Gallevej 60 (Gallevej),,54.920055159922,11.194527095027,0,,,
6386,48108,,Mosevej (Løjtoftevej),,54.848898780464,11.160502598521,0,,,
6388,48111,,Bådesgaardsvej (Skodsebøllevej),,54.776433143872005,11.227934986242001,0,,,
6404,48212,,Søgårdsvej (Vesternæsvej),,54.775752217862994,11.018319037108,0,,,
6405,48213,,Langøparken (Langøvej),,54.809441639642,11.01722845816,0,,,
6406,48214,,Stendyssevej (Langøvej),,54.81168200946,11.017635816688001,0,,,
6425,45535,,Vink - Nørregård (Almindevej),,54.763446054471,11.261327791519001,0,,,
6590,40239,,Rårup (Rårupvænget),,54.794524945493,11.100646986032,0,,,
6591,40243,,Næsby (Vestenskovvej),,54.774094893885,11.076031337851,0,,,
6593,40247,,Kappel Skole (Kappelvej),,54.773887903324,11.034676657551,0,,,
6600,40251,,Vesternæs (Vesternæsvej),,54.775875097667,11.010379432567001,0,,,
12506,48833,,Søllested St. (Jernbanegade),,54.810828522174994,11.270417881184,0,,,
16053,40163,,Nakskov St. (Banegården),,54.83305431942,11.140051117139,0,,,
16055,40165,,Sandby Kirke (Tårsvej),,54.874069502352,11.092110548678,0,,,
16056,40166,,Horslunde Rtb. (Horslunde Busterminal),,54.907805072681,11.214250719598999,0,,,
16057,40167,,Hoskiærsvej (Løjtoftevej),,54.833138607341006,11.149523240276,0,,,
16059,40169,,Skovvænget (Løjtoftevej),,54.838115344945,11.15324518927,0,,,
16061,40171,,Løjtofte v. Toftevej (Toftevej),,54.878914549314004,11.173473438886,0,,,
16062,40172,,Løjtofte v. Toftevej (Toftevej),,54.878787991157,11.173513393764999,0,,,
16065,40175,,Svinsbjerg (Vadbrovej),,54.918225026442,11.253741909361999,0,,,
16066,40177,,Nøbbet (Viemosevej),,54.924579499269,11.268268922054,0,,,
16068,40180,,"Torrig, Poppel Alle (Bandholmvej)",,54.907682161657,11.320518214045999,0,,,
16069,40182,,Reventlow Lille Skole (Torebyvej),,54.778971532121,11.298553480609,0,,,
16071,40186,,Holleby (Maglehøjvej),,54.807364792841994,11.143081167102,0,,,
16072,40187,,Holleby (Hjejlevej),,54.807508754160004,11.143073227090001,0,,,
16074,40188,,Tryghusvej (Maglehøjvej),,54.783857104772,11.150298236189,0,,,
16076,40192,,Spidsby (Maglehøjvej),,54.77308908281999,11.146710447068,0,,,
16077,40193,,Spidsby (Maglehøjvej),,54.773186767786,11.146777816162,0,,,
16080,40194,,Maglehøjvej (Rudbjergvej),,54.759885784482,11.136965000752001,0,,,
16081,40195,,Maglehøjvej (Rudbjergvej),,54.759855011024,11.137180989668,0,,,
16084,40196,,Rudbjerghallen (Maglehøjvej),,54.760710036500996,11.134568040732999,0,,,
16085,40197,,Rudbjerghallen (Maglehøjvej),,54.760816982769,11.134620302579,0,,,
16086,40200,,Vink - Rosenbjergvej (Tillitsevej),,54.766166463682005,11.155391682653999,0,,,
16087,40201,,Stationsvej (Bygaden),,54.760352970161,11.185890709666,0,,,
16091,40202,,Stationsvej (Bygaden),,54.760554272073,11.188683948198,0,,,
16092,40203,,Kirkevej (Bygaden),,54.760395171603,11.192514730725,0,,,
16093,40204,,Kirkevej (Bygaden),,54.760404998571,11.19197122142,0,,,
16094,40207,,"Græshavevej, Dannelunde Skole (Bygaden)",,54.759671002552004,11.206667029994,0,,,
16095,40208,,"Græshavevej, Dannelunde Skole (Bygaden)",,54.759670154699,11.206713615217,0,,,
16096,40211,,Vink - Gloslunde (Gloslunde Gade),,54.755395350866,11.220282454958,0,,,
16204,42090,,Eiglersvej (Tårsvej),,54.837540025921,11.125711764992001,0,,,
16205,42092,,Hvedevænget (Tårsvej),,54.842089627258,11.123583557577,0,,,
16209,42098,,Kløngevej (Tillitsevej),,54.766394975783996,11.151128631782,0,,,
16211,42101,,Rosenbjergvej (Tillitsevej),,54.766236779776,11.154975675686,0,,,
16230,42135,,A. E. Hansensvej (Vejlegadebro),,54.833569855694996,11.131186817034,0,,,
16238,42152,,Vestenskov skole (Vestenskovvej),,54.791491959994005,11.099307451212999,0,,,
16401,41092,,Søhusene (Enehøjvej),,54.836161837468005,11.113009696783,0,,,
16480,43692,,Midlerkampsvej (Skandsen),,54.827307246275,11.136664268296,0,,,
16481,43704,,Vesternæs Strandvej (Vesternæsvej),,54.780700274393,10.994694414914001,0,,,
16539,42552,,Svinsbjerg (Vedbrovej),,54.918782352666994,11.254225623597,0,,,
16540,42554,,Rævegade,,54.916010542706005,11.352066195757999,0,,,
16570,43714,,Sjunkebyvej,,54.7777805586,11.036784766855,0,,,
16677,42692,,Kaj Munks Vej (Nakskov Landevej),,54.76216996288299,11.324058630840002,0,,,
16751,41373,,Linkøpingvej (Højevej),,54.82452895491,11.158546956442,0,,,
16856,44059,,Skovbølle (Harpelundevej),,54.904920020202,11.091495399391999,0,,,
16858,44061,,Roløkke (Oddevej),,54.9138805944,11.119046759609,0,,,
16859,44063,,Bymøllevej (Provstegårdsvej),,54.905959069126,11.10937982977,0,,,
16860,44064,,Vink - Købelev Kirke (Præstegårdsvej),,54.898505303332996,11.124462246839002,0,,,
16899,44147,,H C Skottesvej (Bryggerivej),,54.908524312427,11.214243409517,0,,,
16971,44163,,Vink - Vester Nordlunde (Nordlundevej),,54.877445017571,11.215001573951001,0,,,
17089,41528,,Skovvænget (Løjtoftevej),,54.838532174427,11.153563292832,0,,,
17090,41529,,Løjtoftevej 201 (Løjtoftevej),,54.844128691099,11.157303757606002,0,,,
17091,41530,,Skovsgårdsvej (Løjtoftevej),,54.835090300387,11.150981802181999,0,,,
17099,41544,,Rørsangervej (Maglehøjvej),,54.823368779414,11.139803372074999,0,,,
17100,41545,,Skandsen (Maglehøjvej),,54.82687450054,11.139288203187,0,,,
17116,41567,,Gormsvej (Maribovej),,54.832950674074,11.166159490088999,0,,,
17182,44235,,Vink - Reventlow Lille Skole (Rødbyvej),,54.77912167757,11.297271217272,0,,,
17185,44240,,Søllested Skole (Birkevej),,54.814008265638996,11.269584565529001,0,,,
17195,44268,,Vink - Magletving (Mageltving Møllevej),,54.892539977259,11.295692827346,0,,,
17197,44273,,Posthusvej (Vesterborgvej),,54.856215507478,11.272749549789,0,,,
17210,44314,,Vink - Hestehave (Gloslunde Strandvej),,54.734161817805,11.207563415531,0,,,
17322,41609,,Nakskov St. (Banegården),,54.833008735511996,11.139067684884,0,,,
17600,41798,,Nørrevænget (Primulavej),,54.841581406780996,11.135643073018,0,,,
17759,40805,,Vink - Købelev Kulturcenter (Provstegårdsvej),,54.906976360219005,11.094222865092002,0,,,
17760,40806,,Ravnsborgskolen (Pederstrupvej),,54.90713523198399,11.219923774395001,0,,,
17761,40808,,Realskolen (Hovedgaden),,54.91060619673,11.216900855634,0,,,
17762,40809,,Realskolen (Hovedgaden),,54.911629612045004,11.216972727421,0,,,
17763,40810,,Vindeby forsamlingshus (Toftevej),,54.922780919152004,11.156252180618,0,,,
17764,40811,,Vindeby forsamlingshus (Toftevej),,54.922817116533004,11.156238510643,0,,,
17765,40813,,Utterslev Kirke (Gallevej),,54.921871446893995,11.193002935088,0,,,
17770,40814,,V. Karleby smedie (Nakskovvej),,54.865289310574,11.171867462923,0,,,
17771,40815,,V. Karleby smedie (Nakskovvej),,54.865253389927,11.171865531415,0,,,
17774,40818,,Halsted Kirke (Maribovej),,54.847361437146,11.225689989893,0,,,
17776,40819,,Halsted Kirke (Maribovej),,54.847386949945005,11.225769282791,0,,,
17884,40821,,Vesterborg Kirke (Vesterborgvej),,54.860185185558,11.268609730327,0,,,
17892,40827,,Dronningensstræde (Havnegade),,54.828615253553,11.137932259479001,0,,,
17894,40830,,Græshave (Græshavevej),,54.775011130425995,11.216256711493001,0,,,
17897,40834,,"Hvilested, Rødbyvej (Bjerreskovvej)",,54.789864555234004,11.281033720825,0,,,
17939,42042,,Ahornsvej (Riddersborgvej),,54.834233403154,11.115867634872,0,,,
17965,42084,,Tårs Færgehavn (Spodsbjergvej),,54.875982092857,11.03080828215,0,,,
17966,42086,,Forsythiavej (Tårsvej),,54.856578615398,11.118486631751,0,,,
17967,42087,,Forsythiavej (Tårs Landevej),,54.856252601291,11.118625344784,0,,,
17968,42088,,Christiansdalsvej (Tårsvej),,54.839435472001,11.124752377284,0,,,
18024,40845,,Torvevej (Bygaden),,54.760077198695,11.179238615232,0,,,
18025,40846,,Torvevej (Bygaden),,54.760046022085,11.178972694477,0,,,
18034,40856,,Langø (Havnevej),,54.812747987792996,11.017315432814,0,,,
18035,40858,,Kragenæs Havn,,54.916166295206004,11.359331444714,0,,,
18036,40860,,Vink - Birket (Bandholmvej),,54.899254391134996,11.332043803473,0,,,
18038,40862,,Hejringe (Bandholmvej),,54.881512389528,11.358443540361,0,,,
18039,40863,,Hejringe (Bandholmvej),,54.881558494371006,11.358383869252,0,,,
18084,40935,,Kløvervænget (A. R. Paulsensvej),,54.840181317768,11.146222080883998,0,,,
18599,50733,,Hvedevænget (Tårsvej),,54.842298084019006,11.123485480924002,0,,,
18600,50734,,Branderslevvej (Tårsvej),,54.861816553022,11.115535675697998,0,,,
18760,51110,,Vink - Halstedhus (Halstedhus Vej),,54.849129120775004,11.234666956542,0,,,
18761,51111,,Halstedhus (Rudbjergvej),,54.849056995811004,11.234678546687,0,,,
18763,51113,,Ørsløkkevej (Nakskovvej),,54.91674263217399,11.23716511582,0,,,
18828,51368,,Bådesgaardsvej (Skodsebøllevej),,54.776426732391,11.227794681117,0,,,
18865,51370,,Nedergårdsvej (Tårsvej),,54.847041410045996,11.121585034136,0,,,
18866,51371,,Græshavevej (Højrebyvej),,54.810166042414,11.211878247855001,0,,,
18867,51372,,Søllested St. (Jernbanegade),,54.810709126677,11.271033727944,0,,,
18870,51375,,Næsby (Vestenskovvej),,54.774077464046,11.075999347302,0,,,
18912,51417,,Nakskov St.,,54.833104707642,11.139742347994002,0,,,
18913,51418,,Nakskov St.,,54.833155643586,11.139402463476,0,,,
18914,51419,,Nakskov St. (Perlestikkergade),,54.832973221512006,11.140062397211,0,,,
18915,51420,,Nakskov St. (Perlestikkergade),,54.83300455177201,11.139814907277,0,,,
18916,51421,,Nakskov St. (Perlestikkergade),,54.833045136199,11.139552334830999,0,,,
18919,51426,,Langøparken (Langøvej),,54.80943265851,11.017228010576,0,,,
18920,51427,,Vesternæs Strandvej (Vesternæsvej),,54.780719003611004,10.994648683408,0,,,
18990,51538,,Græshave (Græshavevej),,54.774993454261,11.216240195122001,0,,,
18996,51537,,Baldersvej (Skandsen),,54.827491536822,11.133342107936,0,,,
19017,51583,,Mølle Allé (Tårsvej),,54.834957881971995,11.128924101257,0,,,
20375,52452,,Løjtoftevej 201 (Løjtoftevej),,54.844235348114005,11.157371754298,0,,,
30388,52783,,Vesterborgvej (Rudbjergvej),,54.864761669991,11.261807026747999,0,,,
37024,52969,,Kasbækvej (Viemosevej),,54.924851701183,11.256063442349,0,,,
37025,52970,,Nakskovvej (Hedemøllevej),,54.89488561043,11.195076120238,0,,,
