,stop_id,stop_code,stop_name,stop_desc,stop_lat,stop_lon,location_type,parent_station,wheelchair_boarding,platform_code
37,8600840,,Rødby Færge,,54.656448536267995,11.356981605494001,0,,,
74,8602623,,Nakskov St.,,54.833248872169,11.138192792463,0,,,
177,8602619,,Maribo St.,,54.776641266147,11.501672983703001,0,,,
257,8602601,,Avnede St.,,54.829044870771,11.21521502896,0,,,
359,8602645,,Søllested St.,,54.810959183161,11.27016062816,0,,,
436,8602635,,Ryde St.,,54.785122859397,11.372628573919,0,,,
5189,100220050,,Maribo Station ,,54.776389221367,11.500817651493001,0,,,
5190,100220060,,Stokkemarke ,,54.837255599378004,11.368289306723002,0,,,
5191,100220070,,Halsted Kirke ,,54.84737070236201,11.225674922535,0,,,
5192,100220080,,Nakskov Station ,,54.833008187097995,11.139098799363,0,,,
5193,100220090,,Tårs Færgehavn ,,54.875819777913,11.031376870561,0,,,
5680,45846,,Byfogedvej (Årbyesvej),,54.69461782182999,11.393647831510998,0,,,
5681,45847,,Byfogedvej (Årbyesvej),,54.694617515523994,11.393663333034999,0,,,
5682,45848,,Hagelundsvej (Årbyesvej),,54.694126433950004,11.387116278859999,0,,,
5683,45849,,Hagelundsvej (Årbyesvej),,54.694216649825,11.387556120255999,0,,,
5734,46185,,Toldmestervej (Kragenæsvej),,54.913510878981,11.346989621019,0,,,
5735,46186,,Toldmestervej (Kragenæsvej),,54.913414518941,11.346859182921,0,,,
5793,46373,,Frederiksmindevej (Gartnervej),,54.7071443737,11.518489443594,0,,,
5794,46383,,Syltholmsparken (Syltholmsgade),,54.659255000264,11.350879746442,0,,,
5795,46384,,Strandagervej (Hagesvej),,54.660673537777,11.34494519309,0,,,
5796,46387,,Grønvej (Ringsebøllevej),,54.695319038237,11.396374061545998,0,,,
5797,46389,,Stien Ellemosevej (Maribovej),,54.714710098758005,11.458261186112,0,,,
5798,46390,,Stien Ellemosevej (Maribovej),,54.714772634099,11.458280498946,0,,,
5799,46391,,Vensløkkevej (Maribovej),,54.718583503900994,11.459644818569,0,,,
5800,46394,,Mallehøjvej (Bursøvej),,54.742908654768,11.483043990019,0,,,
5801,46395,,Skibevej/Birketvej (Skibevej),,54.831720759346,11.483277967693,0,,,
5802,46396,,Skibevej/Birketvej (Skibevej),,54.831948397910004,11.483136221909001,0,,,
5803,46397,,Skovvej (Birketvej),,54.835508193538,11.477421175105,0,,,
5804,46398,,Skovvej (Birketvej),,54.835581519872996,11.476911726965001,0,,,
5805,46399,,Rolighedsvej (Birketvej),,54.836868045726995,11.47157063486,0,,,
5806,46400,,Rolighedsvej (Birketvej),,54.836828964253996,11.47172399,0,,,
5807,46402,,Bandholm Skole (Birketvej),,54.839301105455,11.462436468822,0,,,
5808,46406,,Birketvej 79 (Birketvej),,54.840819336660005,11.456719133604,0,,,
5809,46407,,Birketvej 79 (Birketvej),,54.840731917155,11.457040914175,0,,,
5810,46408,,Vinkelvej (Birketvej),,54.844129491693,11.448165959469,0,,,
5811,46409,,Vinkelvej (Birketvej),,54.843965996568,11.448249518826001,0,,,
5812,46410,,Grydehøjsvej (Birketvej),,54.846121762295,11.444766032454,0,,,
5813,46411,,Grydehøjsvej (Birketvej),,54.846161437053006,11.444581497288999,0,,,
5814,46413,,Skovvejen (Blansvej),,54.858900202811,11.426621803389,0,,,
5815,46414,,Skovvejen (Blansvej),,54.85882744083901,11.426664180711999,0,,,
5817,46418,,Bandholmvej (Kragenæsvej),,54.903715816373996,11.332364173199,0,,,
5818,46419,,Bandholmvej (Kragenæsvej),,54.903698755816,11.332316387356,0,,,
5819,46420,,Rævegade (Kragenæsvej),,54.916059285662,11.352334317885001,0,,,
5830,46446,,Kragenæsvej 47 (Kragenæsvej),,54.915055504499996,11.349857093532,0,,,
5831,46447,,Kragenæsvej 47 (Kragenæsvej),,54.915064181973,11.349873203548999,0,,,
6094,47320,,Nakskov Byskole (Nørrevold),,54.832502075560996,11.133637561228001,0,,,
6095,47352,,Vink - Kramnitsevej/Diget (Diget),,54.709411516149,11.247358485099001,0,,,
6191,47726,,Provstelunden (Bymøllevej),,54.904308924245996,11.110198280045,0,,,
6192,47727,,Provstelunden (Bymøllevej),,54.904273002385,11.110196400642,0,,,
6193,47728,,Grevevænget (Tårsvej),,54.876212934094,11.089259844902001,0,,,
6194,47729,,Grevevænget (Tårsvej),,54.876194704875005,11.089274489856,0,,,
6195,47730,,Bøgetvej (Ørnekulevej),,54.928799232211,11.192646335046,0,,,
6196,47731,,Bjælkehovedvej (Toftevej),,54.924856167841995,11.156316389459,0,,,
6197,47732,,Bjælkehovedvej (Toftevej),,54.925199627851,11.156209906995,0,,,
6198,47733,,H C Skottesvej (Stationsvej),,54.91201326117601,11.215652005103,0,,,
6199,47734,,Bøgelunden (H C Skottesvej),,54.9107822878,11.215131903779,0,,,
6200,47735,,Nylandsvej (Hovedgaden),,54.91439548177,11.222039909085,0,,,
6201,47736,,Nylandsvej (Hovedgaden),,54.914518917771,11.222171540488999,0,,,
6202,47737,,Egholmvej (Viemosevej),,54.923424810734,11.283842308864,0,,,
6203,47738,,Boligselskabet (Bandholmvej),,54.908063561386996,11.31230264339,0,,,
6204,47739,,Boligselskabet (Bandholmvej),,54.908060594588,11.312458486721,0,,,
6335,48035,,Klinkegårdsvej (H Christoffersensvej),,54.707083796508996,11.476072133349,0,,,
6336,48036,,Klinkegårdsvej (H Christoffersensvej),,54.707065839587,11.476071038829,0,,,
6337,48037,,Sædingevej (Fruegade),,54.696523423075,11.393201335964001,0,,,
6338,48038,,Sædingevej (Fruegade),,54.696523423075,11.393201335964001,0,,,
6349,48050,,Sukkerfabrikken (Maribovej),,54.831484733036,11.150027039665,0,,,
6350,48051,,Vandværksvej (Maribovej),,54.833708920671995,11.17302069504,0,,,
6351,48052,,Posthusvej (Vesterborgvej),,54.856103089869,11.272992523921001,0,,,
6352,48053,,Vestre Landevej 340 (Vestre Landevej),,54.839980095089,11.351144844405,0,,,
6353,48054,,Vestre Landevej 340 (Vestre Landevej),,54.839980999286006,11.351098171419,0,,,
6354,48055,,Toftevej (Vestre Landevej),,54.838463240902996,11.361211283658,0,,,
6355,48056,,Toftevej (Vestre Landevej),,54.838026287628004,11.362416146997,0,,,
6356,48057,,Havløkkevej (Vestre Landevej),,54.835023495605,11.374870678796999,0,,,
6357,48058,,Havløkkevej (Vestre Landevej),,54.836338977892,11.372876624168999,0,,,
6358,48059,,Sørup (Vestre Landevej),,54.811931057326,11.410823477923,0,,,
6359,48060,,Præstevænget (Vestre Landevej),,54.807507308615996,11.426652046365,0,,,
6360,48061,,Pårup Møllevej (Vestre Landevej),,54.804188231160005,11.44019406248,0,,,
6361,48062,,Pårup Møllevej (Vestre Landevej),,54.804503052983996,11.438843597528999,0,,,
6364,48065,,Havesangervej (Blæsenborg Allé),,54.768471050767005,11.528906856979,0,,,
6365,48066,,Havesangervej (Blæsenborg Allé),,54.768435786520996,11.528873559881001,0,,,
6370,48080,,"Rundkørselen, Rødbyvej (Vestre Landevej)",,54.776091029825004,11.485590215829001,0,,,
6371,48081,,"Rundkørselen, Rødbyvej (Vestre Landevej)",,54.776016974779,11.485694530679,0,,,
6372,48082,,Rå (Kirkevejen),,54.76036368838199,11.437555662965,0,,,
6373,48083,,Rå (Kirkevejen),,54.760225886979,11.437702826582,0,,,
6374,48084,,Erikstrup (Kirkevejen),,54.785699002227,11.436513555994,0,,,
6375,48085,,Havløkke (Havløkkevej),,54.830485751248,11.424776253613999,0,,,
6376,48086,,Åsmarkegade (Havnegade),,54.834429636215,11.483568932874,0,,,
6377,48088,,Vejleby Kirkevej (Duevej),,54.743049645462,11.331089530558,0,,,
6379,48092,,Tuekærvej (Vestervej),,54.71033265099,11.464874194314001,0,,,
6380,48096,,Nedergårdsvej (Tårsvej),,54.847538328718,11.121439767614,0,,,
6381,48097,,Branderslevvej (Tårsvej),,54.861798592027,11.115534735102,0,,,
6382,48098,,Højagervej (Bøgetvej),,54.924491993562,11.191241442806001,0,,,
6383,48099,,Gallevej 60 (Gallevej),,54.920055159922,11.194527095027,0,,,
6384,48100,,Gallevej 60 (Gallevej),,54.920136261031,11.194515904909998,0,,,
6385,48104,,Rødkildevej (Bryggerivej),,54.906588424831,11.202062409699,0,,,
6386,48108,,Mosevej (Løjtoftevej),,54.848898780464,11.160502598521,0,,,
6387,48110,,Hedemøllevej 19 (Hedemøllevej),,54.89375772856,11.187341834957,0,,,
6388,48111,,Bådesgaardsvej (Skodsebøllevej),,54.776433143872005,11.227934986242001,0,,,
6389,48112,,Lienlund (Rødbyvej),,54.821704052304,11.155142634052,0,,,
6390,48113,,"Nygade, Apoteket (Østergade)",,54.830884756801005,11.140746000739,0,,,
6394,48131,,Stavangervej (Højevej),,54.827001195651995,11.161559244526,0,,,
6395,48132,,Gartnervænget (Skolebakken),,54.844175508697006,11.16174544972,0,,,
6398,48170,,Volshave Skovvej (Højrebyvej),,54.80448407039,11.236932305598,0,,,
6399,48171,,Volshave Skovvej (Højrebyvej),,54.804483210445994,11.236978941394,0,,,
6400,48172,,Egevej (Højrebygade),,54.804031199256,11.273382256631999,0,,,
6404,48212,,Søgårdsvej (Vesternæsvej),,54.775752217862994,11.018319037108,0,,,
6405,48213,,Langøparken (Langøvej),,54.809441639642,11.01722845816,0,,,
6406,48214,,Stendyssevej (Langøvej),,54.81168200946,11.017635816688001,0,,,
6407,48215,,Ramsøvej (Langøvej),,54.814455996708006,11.018925863606999,0,,,
6408,48216,,Bogøvej (Langøvej),,54.79549420373299,11.046574147453999,0,,,
6423,45525,,Købelev kirke (Præstegårdsvej),,54.898505303332996,11.124462246839002,0,,,
6424,45532,,Øster Karleby (Karlebyvej),,54.862880117327,11.189393925315,0,,,
6425,45535,,Vink - Nørregård (Almindevej),,54.763446054471,11.261327791519001,0,,,
6426,45542,,Vink - Piletvej (Piletvej),,54.65802212040499,11.446245599319,0,,,
6436,45323,,Vink - Vejlebyvej/Duevej (Duevej),,54.74733341888,11.331770798713,0,,,
6437,45325,,Rårup (Langøvej),,54.795619521223,11.103877439131999,0,,,
6458,40269,,Kongeleddet (Karlstoftevej),,54.670898733968,11.366907859718001,0,,,
6459,40270,,"Jernbanegade, Rødbyhavn (Havnegade)",,54.659163911613,11.354642413782,0,,,
6460,40271,,"Jernbanegade, Rødbyhavn (Havnegade)",,54.659040610333,11.354511233248001,0,,,
6461,40272,,Lalandia (Hagesvej),,54.665108201829995,11.335492689042,0,,,
6462,40273,,Søholtvej (Maribovej),,54.750472724153994,11.468773949928,0,,,
6463,40274,,Søholtvej (Maribovej),,54.750544235589,11.468793844147001,0,,,
6589,40235,,Rødby Færge St. (Færgestationsvej),,54.655078914476,11.354375089382,0,,,
6590,40239,,Rårup (Rårupvænget),,54.794524945493,11.100646986032,0,,,
6591,40243,,Næsby (Vestenskovvej),,54.774094893885,11.076031337851,0,,,
6592,40245,,Sjunkeby (Sjunkebyvej),,54.777186756696,11.054404134195002,0,,,
6593,40247,,Kappel Skole (Kappelvej),,54.773887903324,11.034676657551,0,,,
6594,40248,,Vink - Ydø (Skarntydevej),,54.788768094442,10.985619133143999,0,,,
6595,40249,,Vink - Ydø (Skarntydevej),,54.788759621915,10.985587609410999,0,,,
6596,40255,,Krønge Kbm. (Krøngevej),,54.727293127391995,11.509689862471001,0,,,
6597,40257,,Torslunde (Torslundevej),,54.693761819555995,11.489197037242,0,,,
6598,40259,,Errindlev (Errindlevvej),,54.669085993558,11.496139951828,0,,,
6599,40260,,Vink - Lungholm (Rødbyvej),,54.671740739715005,11.454221138148998,0,,,
6600,40251,,Vesternæs (Vesternæsvej),,54.775875097667,11.010379432567001,0,,,
6601,40252,,Bursø Kirke (Bursøvej),,54.736368833828,11.488516362447,0,,,
6602,40261,,Vink - Lungholm (Rødbyvej),,54.671691450719,11.454435318879002,0,,,
6603,40264,,Holeby Skole (Maribovej),,54.712032569812,11.457307276955,0,,,
6604,40265,,Holeby Skole (Maribovej),,54.712041548392,11.457307820171001,0,,,
6605,40266,,Lolland-Falster Airport (Højbygaardhuse),,54.696841134630006,11.451934183064001,0,,,
6606,40268,,Kongeleddet (Karlstoftevej),,54.670898733968,11.366907859718001,0,,,
12339,49683,,Vink - Saltvig (Klintegårdsvej),,54.871381842794,11.387405477809999,0,,,
12363,49922,,Færgestationsvej,,54.657627941795,11.358274825535,0,,,
12374,49959,,Vensløkkevej (Maribovej),,54.717485752424004,11.459252226377,0,,,
12375,49960,,Stationsvej (Ringsebøllevej),,54.695306992560994,11.396528549676,0,,,
12380,49994,,Topsvej (Rødbyvej),,54.824918446109,11.149771436094,0,,,
12381,49995,,Centralvej (Højrebygade),,54.808195519065,11.272775768787,0,,,
12382,49996,,Centralvej (Højrebygade),,54.808168580168,11.272774256085,0,,,
12383,49997,,Bækkevej (Højrebygade),,54.809764382192,11.272521477798,0,,,
12384,49998,,Bukkehave (Bukkehavevej),,54.720890552911996,11.384248027193001,0,,,
12431,48521,,Vink - Fuglse (Alsøvej),,54.714408580368996,11.529685036626999,0,,,
12504,48823,,Vink - Højbygårdsvej (Højbygaardhuse),,54.691422620139,11.45182457305,0,,,
12505,48824,,Vink - Sognevejen (Sognevejen),,54.68559762988401,11.473475500894,0,,,
12506,48833,,Søllested St. (Jernbanegade),,54.810828522174994,11.270417881184,0,,,
12525,48917,,Vink - Lindet (Lyngmosevej),,54.890822614953,11.328764993033,0,,,
12528,48936,,Vink - Assenbølle (Errindlevvej),,54.683336280049,11.490824003081,0,,,
12579,49311,,Vink - Keldernæs Skolevej (Birketvej),,54.866410151955996,11.397927929526999,0,,,
12580,49312,,Keldernæs Skolevej (Birketvej),,54.866280759462995,11.398107272802,0,,,
16002,40114,,Vink - Skottemarke (Skottemarkevej),,54.702011373845,11.551561093139998,0,,,
16003,40115,,Vink - Skottemarke (Skottemarkevej),,54.702021331374,11.551515149467,0,,,
16004,40116,,Fuglse (Fuglsevej),,54.706643109706,11.521842740021999,0,,,
16005,40117,,Fuglse (Fuglsevej),,54.706632840554,11.521904201122,0,,,
16006,40118,,Holeby Rutebilstation (Jernbanevej),,54.709025039527,11.474777654291,0,,,
16053,40163,,Nakskov St. (Banegården),,54.83305431942,11.140051117139,0,,,
16054,40164,,Sandby Kirke (Tårsvej),,54.874035851845,11.092498490441,0,,,
16055,40165,,Sandby Kirke (Tårsvej),,54.874069502352,11.092110548678,0,,,
16056,40166,,Horslunde Rtb. (Horslunde Busterminal),,54.907805072681,11.214250719598999,0,,,
16057,40167,,Hoskiærsvej (Løjtoftevej),,54.833138607341006,11.149523240276,0,,,
16058,40168,,Skovsgårdsvej (Løjtoftevej),,54.835099280717,11.150982279884,0,,,
16059,40169,,Skovvænget (Løjtoftevej),,54.838115344945,11.15324518927,0,,,
16060,40170,,Mosevej (Løjtoftevej),,54.848578815208995,11.160298560381,0,,,
16061,40171,,Løjtofte v. Toftevej (Toftevej),,54.878914549314004,11.173473438886,0,,,
16062,40172,,Løjtofte v. Toftevej (Toftevej),,54.878787991157,11.173513393764999,0,,,
16063,40173,,Keldsløkkevej (Hedemøllevej),,54.891947539934996,11.181536064366,0,,,
16064,40174,,Keldsløkkevej (Hedemøllevej),,54.891939119559005,11.181504419851,0,,,
16065,40175,,Svinsbjerg (Vadbrovej),,54.918225026442,11.253741909361999,0,,,
16066,40177,,Nøbbet (Viemosevej),,54.924579499269,11.268268922054,0,,,
16067,40179,,"Torrig, Poppel Allé (Bandholmvej)",,54.907853935685,11.317641860295,0,,,
16068,40180,,"Torrig, Poppel Alle (Bandholmvej)",,54.907682161657,11.320518214045999,0,,,
16069,40182,,Reventlow Lille Skole (Torebyvej),,54.778971532121,11.298553480609,0,,,
16070,40183,,Skandsen (Maglehøjvej),,54.827072618005,11.139267542491,0,,,
16071,40186,,Holleby (Maglehøjvej),,54.807364792841994,11.143081167102,0,,,
16072,40187,,Holleby (Hjejlevej),,54.807508754160004,11.143073227090001,0,,,
16074,40188,,Tryghusvej (Maglehøjvej),,54.783857104772,11.150298236189,0,,,
16075,40189,,Tryghusvej (Maglehøjvej),,54.784362211543,11.150200621164,0,,,
16076,40192,,Spidsby (Maglehøjvej),,54.77308908281999,11.146710447068,0,,,
16077,40193,,Spidsby (Maglehøjvej),,54.773186767786,11.146777816162,0,,,
16078,40214,,Landet (Almindevej),,54.758775402889995,11.285579697788998,0,,,
16079,40216,,Vejlebyskov (Nakskov Landevej),,54.758088944143,11.339477157660001,0,,,
16080,40194,,Maglehøjvej (Rudbjergvej),,54.759885784482,11.136965000752001,0,,,
16081,40195,,Maglehøjvej (Rudbjergvej),,54.759855011024,11.137180989668,0,,,
16082,40217,,Vejlebyskov (Nakskov Landevej),,54.758147014195,11.339262896512,0,,,
16083,40218,,V. Tirsted (Bukkehavevej),,54.729578734642,11.349964776019002,0,,,
16084,40196,,Rudbjerghallen (Maglehøjvej),,54.760710036500996,11.134568040732999,0,,,
16085,40197,,Rudbjerghallen (Maglehøjvej),,54.760816982769,11.134620302579,0,,,
16086,40200,,Vink - Rosenbjergvej (Tillitsevej),,54.766166463682005,11.155391682653999,0,,,
16087,40201,,Stationsvej (Bygaden),,54.760352970161,11.185890709666,0,,,
16088,40219,,V. Tirsted (Bukkehavevej),,54.729531431504,11.350086299537,0,,,
16089,40220,,Kirkenoret (Nebbelundevej),,54.697551056495,11.388046906035,0,,,
16090,40222,,Rødby Rutebilstation (Fruegade),,54.696891360835,11.390957020727,0,,,
16091,40202,,Stationsvej (Bygaden),,54.760554272073,11.188683948198,0,,,
16092,40203,,Kirkevej (Bygaden),,54.760395171603,11.192514730725,0,,,
16093,40204,,Kirkevej (Bygaden),,54.760404998571,11.19197122142,0,,,
16094,40207,,"Græshavevej, Dannelunde Skole (Bygaden)",,54.759671002552004,11.206667029994,0,,,
16095,40208,,"Græshavevej, Dannelunde Skole (Bygaden)",,54.759670154699,11.206713615217,0,,,
16096,40211,,Vink - Gloslunde (Gloslunde Gade),,54.755395350866,11.220282454958,0,,,
16097,40223,,Rødby Rutebilstation (Fruegade),,54.696925135168,11.391067650808,0,,,
16098,40224,,Indertoften (Kirkealle),,54.692863011297,11.386452361508999,0,,,
16099,40226,,Søndergade (Kirkealle),,54.689940943824,11.384651450708999,0,,,
16100,40229,,Rødbyhavn Kirke (Havnegade),,54.666530930212005,11.362249277451,0,,,
16101,40232,,K. H. Kofoedsvej (Havnegade),,54.662645033573,11.358224416921,0,,,
16102,40233,,Færgevej,,54.661947822955,11.358943853862,0,,,
16103,40234,,Færgevej,,54.661957405748,11.358913395427999,0,,,
16110,44642,,Vink - Holeby Skole (Vestervej),,54.711676810407,11.455344962816,0,,,
16111,44643,,Holeby Skole (Vestervej),,54.711714115740996,11.454834848996,0,,,
16112,44644,,Vink - Alsøvej (Alsøvej),,54.712101977604,11.559042348965,0,,,
16113,44645,,Vink - Søholtvej/Rødvej (Rødvej),,54.742566143266004,11.505367100143001,0,,,
16114,44646,,Søholtvej/Hestehavevej (Søholtvej),,54.747600518877,11.483517683184,0,,,
16115,44647,,Vink - Hillestolpe (Hillestolpevej),,54.719235931073,11.496752781419001,0,,,
16119,44652,,Vink - Egelund (Havnevej),,54.664567561605,11.514224824210999,0,,,
16147,40964,,Bindernæsvej,,54.669236194879,11.361816987364,0,,,
16148,40965,,Birkevænget 45 (Birkevænget),,54.840977292422,11.139831933378,0,,,
16152,40973,,Vink - Bjerremarksvej (Bjerremarkvej),,54.651623096691,11.430543756596,0,,,
16153,40974,,Allikevej (Blæsenborg Allé),,54.774430729871,11.529791963352,0,,,
16154,40975,,Bregnevej (Blæsenborg Allé),,54.776885417806994,11.527612487169002,0,,,
16155,40976,,Allikevej (Blæsenborg Allé),,54.774495195951005,11.529718234702,0,,,
16156,40977,,Engpibervej (Blæsenborg Allé),,54.771579521235,11.529862763631,0,,,
16157,40978,,Engpibervej (Blæsenborg Allé),,54.77118351731,11.529884690536,0,,,
16158,40979,,Blæsenborgskolen (Blæsenborg Allé),,54.771894616157,11.527254537569,0,,,
16159,40981,,Bregnevej (Blæsenborg Allé),,54.77695853687101,11.527554842168,0,,,
16176,41016,,Birkevænget (Bregnevej),,54.838633616209,11.138166074882,0,,,
16181,41021,,Torvet,,54.77379679439,11.502290439051,0,,,
16182,41025,,Gasværksvej (Brovejen),,54.776746455918996,11.490886792629,0,,,
16184,41029,,Åparken (Brovejen),,54.776553486278,11.495462573126,0,,,
16185,41030,,Åparken (Brovejen),,54.776492903956004,11.495785419645,0,,,
16187,41033,,Gasværksvej (Brovejen),,54.776840834085,11.491981195322001,0,,,
16190,41037,,Vink - Bukkehave (Bukkehavevej),,54.721147104126,11.384915338206,0,,,
16192,41047,,Vink - Bjernæsvej (Byvej),,54.657453521388,11.464973217112998,0,,,
16193,41048,,Vink - Fælledvej (Byvej),,54.652209884145,11.486205808408,0,,,
16194,41051,,Christiansdalsvej,,54.840073436398,11.129894316959,0,,,
16203,41085,,Egelundvej,,54.668209158307,11.498117944124001,0,,,
16204,42090,,Eiglersvej (Tårsvej),,54.837540025921,11.125711764992001,0,,,
16205,42092,,Hvedevænget (Tårsvej),,54.842089627258,11.123583557577,0,,,
16208,42095,,Fællesskabsvej (Teglværksvej),,54.840889303878,11.11562412717,0,,,
16209,42098,,Kløngevej (Tillitsevej),,54.766394975783996,11.151128631782,0,,,
16210,42100,,Kløngevej (Tillitsevej),,54.766383791070005,11.151252407667998,0,,,
16211,42101,,Rosenbjergvej (Tillitsevej),,54.766236779776,11.154975675686,0,,,
16218,42110,,Tornskadevej,,54.820710632493,11.141188349638,0,,,
16219,42111,,Færgelandsparken (Tornskadevej),,54.820617585197,11.144421358138,0,,,
16220,42113,,Torsøvej (Krambesvej),,54.647922148063,11.517940420109,0,,,
16221,42114,,Lollands Centret (Torvegade),,54.773521669561994,11.505165789143,0,,,
16229,42134,,Vink - Duevej (Vejlebyvej),,54.748216740073005,11.324626633117001,0,,,
16230,42135,,A. E. Hansensvej (Vejlegadebro),,54.833569855694996,11.131186817034,0,,,
16238,42152,,Vestenskov skole (Vestenskovvej),,54.791491959994005,11.099307451212999,0,,,
16240,42157,,Søparken (Vestergade),,54.775107431071994,11.496710883643999,0,,,
16241,42158,,Ved Åen (Vesterbrogade),,54.775450598968,11.493139766825,0,,,
16242,42159,,Blomsterparken (Vestergade),,54.693837371192,11.382164186136,0,,,
16243,42160,,Blomsterparken (Vestergade),,54.693837371192,11.382164186136,0,,,
16244,42161,,Maglemose (Vestervej),,54.711351966583,11.458508196966,0,,,
16245,42162,,Maglemose (Vestervej),,54.711403466979,11.45818526348,0,,,
16246,42163,,Nyvej (Vestervej),,54.709560106652,11.469702339259,0,,,
16247,42164,,Nyvej (Vestervej),,54.709551128152,11.469701793355998,0,,,
16248,42166,,Tuekærvej (Vestervej),,54.710333281935995,11.464843180915999,0,,,
16249,42171,,Øltappervej (Vestre Landevej),,54.839793008716,11.355230221814,0,,,
16250,42175,,Øltappervej (Vestre Landevej),,54.839776480915006,11.355618637108,0,,,
16255,42181,,Bregnevej (Violvej),,54.838135147268,11.141456916991999,0,,,
16270,42203,,Nybrogade (Winchellsgade),,54.82839765976,11.141097031626,0,,,
16401,41092,,Søhusene (Enehøjvej),,54.836161837468005,11.113009696783,0,,,
16407,41106,,Vink - Errindlev Havn (Havnevej),,54.646293595568,11.548936042147,0,,,
16408,41107,,Errindlev skole (Centralskolevej),,54.66766773832501,11.490360886793999,0,,,
16409,41110,,Errindlevvej,,54.672847498346,11.495083320624001,0,,,
16434,41163,,Sundhedscentret (Fayesvej),,54.834472261906,11.147304998657,0,,,
16449,41189,,Torslundevej (Fuglsevej),,54.707756824632995,11.489728519017,0,,,
16458,41223,,Mølle Allé (Gasvej),,54.83415732375,11.127418172513002,0,,,
16480,43692,,Midlerkampsvej (Skandsen),,54.827307246275,11.136664268296,0,,,
16481,43704,,Vesternæs Strandvej (Vesternæsvej),,54.780700274393,10.994694414914001,0,,,
16539,42552,,Svinsbjerg (Vedbrovej),,54.918782352666994,11.254225623597,0,,,
16540,42554,,Rævegade,,54.916010542706005,11.352066195757999,0,,,
16570,43714,,Sjunkebyvej,,54.7777805586,11.036784766855,0,,,
16571,43715,,Svanekærvej (Vestenskovvej),,54.782081254381,11.095118446807001,0,,,
16572,43717,,Midlerkampsvej (Skandsen),,54.827306972396,11.136679823368,0,,,
16573,43718,,Reimersgade (Rødbyvej),,54.830549978818,11.144434132760999,0,,,
16590,43757,,Vink - Skibevejen (Skibevejen),,54.80924216952501,11.478676713124,0,,,
16593,43760,,Vink - Skibevejen (Skibevejen),,54.809188617398995,11.478657869304,0,,,
16606,43800,,Vink - Krøngevej (Møllevej),,54.730202093953,11.528463524945,0,,,
16607,43802,,Torslundevej (Fuglsevej),,54.707755868692,11.48977503529,0,,,
16608,43811,,Ringsebøllevej,,54.694970953658,11.399426441263001,0,,,
16609,43812,,Ringsebøllevej,,54.694982081922,11.399318460172,0,,,
16611,43844,,Bindernæsvej,,54.66925626836701,11.361709584396,0,,,
16612,43845,,Pilestien (Hagesvej),,54.669076864933004,11.337597174295,0,,,
16675,42690,,Egevej,,54.803743850936,11.273366119457,0,,,
16677,42692,,Kaj Munks Vej (Nakskov Landevej),,54.76216996288299,11.324058630840002,0,,,
16678,42693,,Kaj Munks Vej (Nakskov Landevej),,54.761888720733005,11.325130663512,0,,,
16737,41331,,Pilestien (Hagesvej),,54.669112184561996,11.337630222958,0,,,
16738,41332,,Lalandia (Hagesvej),,54.665172850507005,11.33540335114,0,,,
16740,41356,,Bygvænget (Helgenæsvej),,54.842877668430994,11.118609647696,0,,,
16741,41357,,Rugvænget (Helgenæsvej),,54.842861950878,11.122082155388,0,,,
16747,41367,,Havebyen (Hillestolpevej),,54.712085724642,11.490366514618001,0,,,
16750,41372,,Rjukanvej (Højevej),,54.829536628514994,11.162535554856,0,,,
16751,41373,,Linkøpingvej (Højevej),,54.82452895491,11.158546956442,0,,,
16774,41407,,Vink - Humlegårdsvej v/Ferd. Jensensvej,,54.661218557493,11.390628381483,0,,,
16777,41413,,Hyldtoftevej,,54.667850264555,11.43943848098,0,,,
16778,41414,,Tågerupvej (Hyldtoftevej),,54.673610866181,11.443537798794,0,,,
16834,45154,,Sct. Birgitta Skole (Ansgarsvej),,54.77539219379501,11.509480190456,0,,,
16854,44057,,Vink - Tårs Gl. Havn (Tårsvej),,54.878009042673995,11.023536767063,0,,,
16855,44058,,Vink - Frederiksdal (Frederiksdalsvej),,54.901541985856,11.0417343423,0,,,
16856,44059,,Skovbølle (Harpelundevej),,54.904920020202,11.091495399391999,0,,,
16857,44060,,Vink - Nøjsomhed (Nøjsomhedsvej),,54.93125572769301,11.09102026141,0,,,
16858,44061,,Roløkke (Oddevej),,54.9138805944,11.119046759609,0,,,
16859,44063,,Bymøllevej (Provstegårdsvej),,54.905959069126,11.10937982977,0,,,
16860,44064,,Vink - Købelev Kirke (Præstegårdsvej),,54.898505303332996,11.124462246839002,0,,,
16899,44147,,H C Skottesvej (Bryggerivej),,54.908524312427,11.214243409517,0,,,
16970,44162,,Vink - Kragemosevej (Kragemosevej),,54.864286704609,11.232591250393,0,,,
16971,44163,,Vink - Vester Nordlunde (Nordlundevej),,54.877445017571,11.215001573951001,0,,,
16972,44165,,Vink - Halsted gl. skole (Horslundevej),,54.847940586263,11.224008325644,0,,,
16973,44166,,Vink - Langesø (Langesøvej),,54.888920691249,11.244058619825001,0,,,
16974,44169,,Vink - Urne (Maglehøjvej),,54.944581398698,11.277796484877,0,,,
16975,44170,,Vink - Tvede (Kasbækvej),,54.940723655637996,11.251347076802,0,,,
16976,44174,,Vink - Kastager Strand (Bøgetvej),,54.958755920266,11.212147911874,0,,,
16977,44178,,Vink - Nybølle (Fynbovej),,54.92953852373999,11.220736440348999,0,,,
16979,44180,,Vink - Gl. Kastagervej (Gl Kastagervej),,54.93802648612701,11.210244324528,0,,,
16980,44183,,Vink - Ved Madevejen (Kragenakkevej),,54.948237900532,11.183881969633,0,,,
16981,44184,,Vink - Alleenborg (Bjælkehovedvej),,54.934100815233,11.161135376658,0,,,
16982,44186,,Onsevig (Byskovvej),,54.9472682322,11.11778949218,0,,,
17059,41453,,Sognefogedvænget (Karlstoftevej),,54.672435441118004,11.37382211903,0,,,
17060,41454,,Sognefogedvænget (Karlstoftevej),,54.67242585454701,11.373852581615,0,,,
17069,41478,,Willersvej (Kirkealle),,54.688464142267,11.383866549340999,0,,,
17070,41482,,Hunseby Kirkevej 10 (Hunseby Kirkevej),,54.798230373502996,11.516637172744998,0,,,
17071,41483,,Hunseby Kirkevej 10 (Hunseby Kirkevej),,54.798237416872,11.516730969146,0,,,
17072,41484,,Hunseby Kirkevej v/18 (Hunseby Kirkevej),,54.798356096714,11.513175152707,0,,,
17073,41485,,Hunseby Kirkevej 23 (Hunseby Kirkevej),,54.79839587283399,11.512990904208,0,,,
17074,41486,,Knuthenborg Allé (Hunseby Kirkevej),,54.799567537575996,11.507633108938,0,,,
17075,41489,,Skolevej (Knuthenborgvej),,54.797501364835995,11.504953384771,0,,,
17076,41490,,Knuthenborgvej 39 (Knuthenborgvej),,54.793799501462004,11.503557519352,0,,,
17078,41505,,Krøyers Gård,,54.83006153889399,11.142570900903001,0,,,
17089,41528,,Skovvænget (Løjtoftevej),,54.838532174427,11.153563292832,0,,,
17090,41529,,Løjtoftevej 201 (Løjtoftevej),,54.844128691099,11.157303757606002,0,,,
17091,41530,,Skovsgårdsvej (Løjtoftevej),,54.835090300387,11.150981802181999,0,,,
17099,41544,,Rørsangervej (Maglehøjvej),,54.823368779414,11.139803372074999,0,,,
17100,41545,,Skandsen (Maglehøjvej),,54.82687450054,11.139288203187,0,,,
17101,41546,,Fælandsvej (Maglehøjvej),,54.778879475981,11.150174042251,0,,,
17102,41547,,Rørsangervej (Maglehøjvej),,54.823476818639,11.139793518694999,0,,,
17103,41548,,Fælandsvej (Maglehøjvej),,54.778541249823,11.14998503589,0,,,
17104,41549,,Søvænget (Maglemervej),,54.779704074611,11.500058009567,0,,,
17105,41550,,Skolevej (Knuthenborgvej),,54.797545613592995,11.504987241427,0,,,
17106,41551,,Søvænget (Maglemervej),,54.779731009179,11.500059671700999,0,,,
17107,41552,,Knuthenborgvej 39 (Knuthenborgvej),,54.793836055533,11.503528663419,0,,,
17108,41553,,Engvej (Maglemervej),,54.782203533464,11.500041174260001,0,,,
17109,41554,,Engvej (Maglemervej),,54.782194555278,11.500040620167999,0,,,
17110,41555,,Tokkeløkkevej (Knuthenborgvej),,54.790068424141,11.504882514705,0,,,
17111,41559,,"Sædinge, Maribo Landevej (Maribo Landevej)",,54.709917943803994,11.413583545032001,0,,,
17112,41560,,Maribo St. (Banegårdspladsen),,54.776438613051006,11.501473855515,0,,,
17113,41562,,Maribo St. (Banegårdspladsen),,54.77646233655501,11.501195396181,0,,,
17114,41564,,Maribo St. (Banegårdspladsen),,54.77643572924401,11.501613639374002,0,,,
17115,41565,,Rolfsvej (Maribovej),,54.832287375577,11.158992192399001,0,,,
17116,41567,,Gormsvej (Maribovej),,54.832950674074,11.166159490088999,0,,,
17117,41568,,Vandværksvej (Maribovej),,54.833724652548,11.173146117519,0,,,
17118,41569,,Frodesvej (Maribovej),,54.832151459905994,11.157536788710999,0,,,
17119,41571,,Sukkerfabrikken (Maribovej),,54.831478233051,11.149886553379,0,,,
17120,41573,,Gormsvej (Maribovej),,54.832943082186006,11.166081224367002,0,,,
17121,41580,,Wibolttsvej (Marienlystvej),,54.83558910939,11.12419208991,0,,,
17148,42935,,Maribo St. (Banegårdspladsen),,54.776441817093,11.501318540086999,0,,,
17149,42936,,Maribo St. (Banegårdspladsen),,54.776303940283,11.501465541187999,0,,,
17174,44221,,Avnede (Ullerslevvej),,54.82945805418,11.214739399639,0,,,
17175,44225,,Græshavevej (Højrebyvej),,54.810137401637,11.211970061758,0,,,
17176,44226,,Vink - Torpevej (Torpevej),,54.812438664135,11.182181785771,0,,,
17177,44227,,Stibankevejen/Løjet Skovvej (Stibankevejen),,54.792713257637,11.355851618032998,0,,,
17178,44228,,Højrebyhallen (Bøgevej),,54.81430969465,11.266924292058999,0,,,
17179,44229,,Vink - Skovlængevej (Skovlængevej),,54.827460452396004,11.256808994915,0,,,
17180,44233,,"Vink - Hvilested, Strædet (Rødbyvej)",,54.79138736908,11.280839476084001,0,,,
17181,44234,,"Vink - Hvilested, Strædet (Rødbyvej)",,54.791489359086,11.280674100974,0,,,
17182,44235,,Vink - Reventlow Lille Skole (Rødbyvej),,54.77912167757,11.297271217272,0,,,
17183,44236,,Kaj Munks Vej (Rødbyvej),,54.762082897407,11.324380087786,0,,,
17184,44239,,Vink - Skidenstræde (Strædet),,54.800222034517,11.303758637327,0,,,
17185,44240,,Søllested Skole (Birkevej),,54.814008265638996,11.269584565529001,0,,,
17194,44267,,Vink - Reventlowparken (Pederstrupvej),,54.895955276108,11.268452840922,0,,,
17195,44268,,Vink - Magletving (Mageltving Møllevej),,54.892539977259,11.295692827346,0,,,
17196,44270,,Vink - Rosningevej/Skovhusevej (Skovhusevej),,54.875015733977,11.309209192235,0,,,
17197,44273,,Posthusvej (Vesterborgvej),,54.856215507478,11.272749549789,0,,,
17209,44313,,Vink - Hoby (Hobyvej),,54.740308408164,11.23123348497,0,,,
17210,44314,,Vink - Hestehave (Gloslunde Strandvej),,54.734161817805,11.207563415531,0,,,
17320,41599,,Slagterivej (Museumsgade),,54.776325960914,11.508667149726,0,,,
17322,41609,,Nakskov St. (Banegården),,54.833008735511996,11.139067684884,0,,,
17325,41613,,Kirkenoret (Nebbelundevej),,54.697982051422,11.388072232648002,0,,,
17326,41614,,Nebbelunde (Nebbelundevej),,54.709995854122,11.384679762906,0,,,
17327,41615,,Nebbelunde (Nebbelundevej),,54.709968916927004,11.384678181519,0,,,
17337,41645,,"Østergade, Apoteket (Nygade)",,54.830669027008,11.140236314562,0,,,
17359,41684,,Oksebæksvej (Nymarksvej),,54.838645495162,11.114914910436001,0,,,
17562,41735,,Refshalevej (Østervang),,54.772119902565,11.510785869061001,0,,,
17563,41736,,Refshalevej (Østervang),,54.77212022415301,11.510770339285,0,,,
17564,41737,,Leonora Christinas Vej (Østervang),,54.772062950158,11.513534634679,0,,,
17565,41738,,Leonora Christinas Vej (Østervang),,54.772064559838,11.513456986066,0,,,
17566,41739,,Monrads Vej (Østervang),,54.772147555051,11.517256267925001,0,,,
17567,41740,,Monrads Vej (Østervang),,54.772169652806994,11.517490886788002,0,,,
17568,41741,,Fabriksvej (Østervej),,54.707877096666,11.480358801194999,0,,,
17569,41742,,Fabriksvej (Østervej),,54.707887027426004,11.480312832664001,0,,,
17570,41743,,Stormarksskolen (Østre Allé),,54.838101410286,11.155549363454002,0,,,
17571,41745,,Ringvejen (Østre Allé),,54.835636643263996,11.157676027112998,0,,,
17572,41747,,Østre Park (Østre Boulevard),,54.776809007478,11.518323444545,0,,,
17573,41748,,Margretecenteret (Østre Boulevard),,54.772717568622,11.520541618777001,0,,,
17574,41749,,Margretecenteret (Østre Boulevard),,54.772744825638,11.520527764188001,0,,,
17575,41750,,Østre Park (Østre Boulevard),,54.776735247469,11.518412169045,0,,,
17576,41751,,Maribo Bibliotek (Østre Landevej),,54.77695198573301,11.515766320328,0,,,
17577,41752,,Sct. Birgitta Skole (Østergade),,54.774792837523,11.510640477054999,0,,,
17578,41754,,Maribo Bibliotek (Østre Landevej),,54.776703542861995,11.51517548939,0,,,
17579,41755,,Blæsenborg Allé (Østre Landevej),,54.779575193034,11.524934170667,0,,,
17580,41757,,Blæsenborg Allé (Østre Landevej),,54.779542191742,11.524792140406001,0,,,
17585,41771,,Rosenvænget (Parkvænget),,54.83888326652001,11.149984388141998,0,,,
17600,41798,,Nørrevænget (Primulavej),,54.841581406780996,11.135643073018,0,,,
17617,41827,,Sundhedscenter Maribo (Søndre Boulevard),,54.766324612736,11.513676294356001,0,,,
17618,41828,,Søndre Boulevard (Refshalevej),,54.769744603604,11.509581394349999,0,,,
17695,44594,,"Maribo Skole, Østofte afd. (Østofte Gade)",,54.800816109614,11.425457359662001,0,,,
17696,44595,,Erikstrup (Kirkevejen),,54.785671754263,11.436527471564,0,,,
17698,44598,,Vink - Stokkemarke Gl. Skole (Tjennemarkevej),,54.834678989556,11.364431961131,0,,,
17743,44583,,Vink - Reventlow Lille Skole (Rødbyvej),,54.77912167757,11.297271217272,0,,,
17744,44585,,Stokkemarke Kirke (Tjennemarkevej),,54.836744349648,11.365004392291999,0,,,
17745,44586,,Bandholm Skole (Birketvej),,54.839311030775995,11.462390347339001,0,,,
17746,44588,,Havløkke (Havløkkevej),,54.830485751248,11.424776253613999,0,,,
17747,44589,,Vink - Koblet (Havløkkevej),,54.835255723183,11.375865447322,0,,,
17748,44590,,Præstevænget (Vestre Landevej),,54.807874921216005,11.425351223359002,0,,,
17759,40805,,Vink - Købelev Kulturcenter (Provstegårdsvej),,54.906976360219005,11.094222865092002,0,,,
17760,40806,,Ravnsborgskolen (Pederstrupvej),,54.90713523198399,11.219923774395001,0,,,
17761,40808,,Realskolen (Hovedgaden),,54.91060619673,11.216900855634,0,,,
17762,40809,,Realskolen (Hovedgaden),,54.911629612045004,11.216972727421,0,,,
17763,40810,,Vindeby forsamlingshus (Toftevej),,54.922780919152004,11.156252180618,0,,,
17764,40811,,Vindeby forsamlingshus (Toftevej),,54.922817116533004,11.156238510643,0,,,
17765,40813,,Utterslev Kirke (Gallevej),,54.921871446893995,11.193002935088,0,,,
17770,40814,,V. Karleby smedie (Nakskovvej),,54.865289310574,11.171867462923,0,,,
17771,40815,,V. Karleby smedie (Nakskovvej),,54.865253389927,11.171865531415,0,,,
17772,40816,,Maribo St. (Banegårdspladsen),,54.776300729199,11.501185420099,0,,,
17773,40817,,Maribo St. (Banegårdspladsen),,54.776301056491,11.501605324584,0,,,
17774,40818,,Halsted Kirke (Maribovej),,54.847361437146,11.225689989893,0,,,
17775,40804,,Købelev Kulturcenter (Provstegårdsvej),,54.90698668424599,11.094145400420999,0,,,
17776,40819,,Halsted Kirke (Maribovej),,54.847386949945005,11.225769282791,0,,,
17786,41874,,Rødby Rutebilstation (Fruegade),,54.696908095026,11.391020086958001,0,,,
17787,41876,,Rødby Rutebilstation (Fruegade),,54.696931666273,11.391192198575,0,,,
17788,41877,,Rødby Rutebilstation (Fruegade),,54.696939421298,11.391254736635,0,,,
17789,41878,,Hagesvej (Rødbyvej),,54.827015086649,11.146597710035,0,,,
17790,41879,,Reimersgade (Rødbyvej),,54.830161623552996,11.144538106498999,0,,,
17791,41881,,Kærvej (Rødbyvej),,54.667363299078,11.494669411567,0,,,
17792,41882,,"Hillested, Rødbyvej (Rødbyvej)",,54.75443607711001,11.448436682794002,0,,,
17793,41883,,Dyrehegnet (Rødbyvej),,54.774631322376,11.484878652707,0,,,
17794,41884,,Dyrehegnet (Rødbyvej),,54.774916783401004,11.485424881183,0,,,
17795,41885,,"Hillested, Rødbyvej (Rødbyvej)",,54.75427144103,11.448131432993,0,,,
17800,41909,,Runestensvej v/30 (Runestensvej),,54.724545569032,11.345744134487,0,,,
17801,41910,,Engvej (Sædingevej),,54.699960092228004,11.395794060612,0,,,
17802,41911,,Engvej (Sædingevej),,54.699638074333,11.395712989155,0,,,
17816,41933,,Birkevænget (Skelstrupvej),,54.79317838019399,11.522686328419,0,,,
17817,41934,,Kampersvænge (Skelstrupvej),,54.787066422671,11.521341182493998,0,,,
17818,41935,,Møllevej (Skelstrupvej),,54.797344965459004,11.522043494452,0,,,
17819,41936,,Birkevænget (Skelstrupvej),,54.793096931679,11.52271236977,0,,,
17820,41937,,Anderstrupvej (Skelstrupvej),,54.783103606095,11.522992099065002,0,,,
17821,41938,,Møllevej (Skelstrupvej),,54.79740781154101,11.522047409406,0,,,
17822,41939,,Anderstrupvej (Skelstrupvej),,54.783031458688,11.523003159337001,0,,,
17823,41940,,Kampersvænge (Skelstrupvej),,54.78690578707501,11.521284516218,0,,,
17824,41945,,Løjtoftevej (Skolebakken),,54.845630836095,11.159268706396,0,,,
17825,41946,,Skolebakken (Skolevej),,54.842524748147,11.162576127591,0,,,
17828,41955,,Bangs Have Parken (Skovvænget),,54.77413991047,11.488238501222,0,,,
17883,40820,,Vesterborg Kirke (Vesterborgvej),,54.859812950011,11.268806981873,0,,,
17884,40821,,Vesterborg Kirke (Vesterborgvej),,54.860185185558,11.268609730327,0,,,
17885,40822,,Stokkemarke (Vestre Landevej),,54.837246620396,11.368288780745,0,,,
17886,40838,,Brandstrupvej v/Branddam (Brandstrupvej),,54.741164637509,11.357441063399,0,,,
17887,40839,,Øster Skørringe (Skørringevej),,54.74786235939,11.394100362848999,0,,,
17888,40840,,Øster Skørringe (Skørringevej),,54.74786235939,11.394100362848999,0,,,
17889,40823,,Stokkemarke (Vestre Landevej),,54.837181234146996,11.366571791395,0,,,
17890,40824,,Nørreballe (Vestre Landevej),,54.806194654439004,11.431600025829999,0,,,
17891,40825,,Nørreballe (Vestre Landevej),,54.806282316289995,11.431262916889999,0,,,
17892,40827,,Dronningensstræde (Havnegade),,54.828615253553,11.137932259479001,0,,,
17893,40828,,Lienlund (Rødbyvej),,54.82168609165301,11.155141677276001,0,,,
17894,40830,,Græshave (Græshavevej),,54.775011130425995,11.216256711493001,0,,,
17895,40832,,Vink - Toftegårdsvej Ullerslev (Toftegårdsvej),,54.817564425498,11.21234493385,0,,,
17896,40833,,"Vink - Hvilested, Rødbyvej (Bjerreskovvej)",,54.789831266887,11.280891845386,0,,,
17897,40834,,"Hvilested, Rødbyvej (Bjerreskovvej)",,54.789864555234004,11.281033720825,0,,,
17898,40836,,Vink - Vejleby (Vejlebyvej),,54.747303747275,11.330976578952,0,,,
17899,40837,,Brandstrupvej v/Branddam (Brandstrupvej),,54.741152639755,11.357595738634,0,,,
17936,42036,,Ole Kirks Allé (Stormarks Allé),,54.838474820009004,11.161845560115,0,,,
17937,42037,,Stormarks Alle 30 (Stormarks Allé),,54.83841761582,11.158494112818,0,,,
17939,42042,,Ahornsvej (Riddersborgvej),,54.834233403154,11.115867634872,0,,,
17956,42070,,Kørbergsgade (Svingelsvej),,54.83205260172,11.141804388538999,0,,,
17958,42075,,Sundhedscenter Maribo (Søndre Boulevard),,54.766274533163994,11.514357277332001,0,,,
17959,42076,,Syltholmsparken (Syltholmsgade),,54.659448417925994,11.350177644073998,0,,,
17960,42077,,Strandagervej (Hagesvej),,54.660663658515,11.344991143103002,0,,,
17963,42082,,Vink - Tågerupvej (Tågerupvej),,54.679068010084,11.449745438109,0,,,
17964,42083,,Tamrodsvej v/Flårupvej (Tamrodsvej),,54.691029007833,11.548419648008,0,,,
17965,42084,,Tårs Færgehavn (Spodsbjergvej),,54.875982092857,11.03080828215,0,,,
17966,42086,,Forsythiavej (Tårsvej),,54.856578615398,11.118486631751,0,,,
17967,42087,,Forsythiavej (Tårs Landevej),,54.856252601291,11.118625344784,0,,,
17968,42088,,Christiansdalsvej (Tårsvej),,54.839435472001,11.124752377284,0,,,
17969,42089,,Mølle Allé (Tårsvej),,54.835575125811005,11.128068954795001,0,,,
18005,44599,,Abed (Abedvej),,54.833930774434,11.327340422124,0,,,
18006,44600,,Vink - Fællesenggårdsvej (Abedvej),,54.816750551881,11.327908708318,0,,,
18007,44601,,Vink - Nymarksvej (Nymarksvej),,54.815891262222,11.342662396149,0,,,
18008,44602,,Vink - Stibankevejen (Stibankevejen),,54.802564141216,11.33219676151,0,,,
18010,44604,,Ryde St. (Stibankevejen),,54.785289041043995,11.372404994321,0,,,
18012,44609,,Sørup (Vestre Landevej),,54.811844069418,11.411129587166,0,,,
18013,44610,,Vink - Tjennemarke (Tjennemarkevej),,54.817369435376996,11.350359984477999,0,,,
18017,44619,,Vink - V. Tirsted (Runestensvej),,54.729826333149006,11.349249065662,0,,,
18018,44621,,Vink - V. Skørringe (Skørringe Kirkevej),,54.754886821274006,11.373796765336001,0,,,
18019,44622,,Vink - Skørringe Skovhuse (Haldsvej),,54.764522117,11.404427513633001,0,,,
18020,44628,,Vink - Lundegårde (Lundegårdsvej),,54.680946552603,11.413942572146,0,,,
18024,40845,,Torvevej (Bygaden),,54.760077198695,11.179238615232,0,,,
18025,40846,,Torvevej (Bygaden),,54.760046022085,11.178972694477,0,,,
18026,40847,,Nakskov Landevej (Brandstrupvej),,54.753599814531,11.363292719975,0,,,
18027,40848,,Nakskov Landevej (Brandstrupvej),,54.753626751948005,11.363294289719,0,,,
18028,40849,,Gumpehavevej (Brandstrupvej),,54.746094044921996,11.361892005650999,0,,,
18029,40850,,Gumpehavevej (Brandstrupvej),,54.746129659123,11.361909618371,0,,,
18030,40851,,Ahornvej (Havnevej),,54.685739543247,11.382993051262,0,,,
18031,40852,,Ahornvej (Havnevej),,54.685802092119,11.383012233549,0,,,
18032,40853,,Færgestationsvej,,54.657567801315004,11.35813179319,0,,,
18033,40855,,Duevej (Brandstrupvej),,54.74036730492,11.353137620452001,0,,,
18034,40856,,Langø (Havnevej),,54.812747987792996,11.017315432814,0,,,
18035,40858,,Kragenæs Havn,,54.916166295206004,11.359331444714,0,,,
18036,40860,,Vink - Birket (Bandholmvej),,54.899254391134996,11.332043803473,0,,,
18037,40861,,Birket Skole (Bandholmvej),,54.899155321611005,11.332053673809,0,,,
18038,40862,,Hejringe (Bandholmvej),,54.881512389528,11.358443540361,0,,,
18039,40863,,Hejringe (Bandholmvej),,54.881558494371006,11.358383869252,0,,,
18040,40864,,Vink - Saltvig (Birketvej),,54.872500856425,11.382608229038999,0,,,
18041,40865,,Vink - Saltvig (Birketvej),,54.872520341842005,11.382531439551,0,,,
18042,40866,,Keldernæs (Birketvej),,54.863597832844,11.401953183857,0,,,
18043,40867,,Keldernæs (Kildevej),,54.863884796546,11.401533880976,0,,,
18044,40868,,Blans (Blansvej),,54.861124055251,11.423747762437,0,,,
18045,40869,,Blans (Blansvej),,54.861134276952,11.423686041278,0,,,
18046,40870,,Reersnæs (Birketvej),,54.841913336774,11.452408675846,0,,,
18047,40871,,Reersnæs (Birketvej),,54.841963258754,11.452162483235,0,,,
18048,40872,,Bandholm St. (Stationsvej),,54.835351896408994,11.481990325284,0,,,
18049,40874,,Bandholm Havn (Havnepladsen),,54.839055858666,11.491189145654,0,,,
18050,40879,,Fuglse skole (Møllevej),,54.711338719241,11.526015899633999,0,,,
18083,40931,,Nakskov St. (Nørrevold),,54.83316454954701,11.137876897988999,0,,,
18084,40935,,Kløvervænget (A. R. Paulsensvej),,54.840181317768,11.146222080883998,0,,,
18096,40957,,Nakskov St. v/anlægget (Jernbanegade),,54.832971301778,11.138131401145001,0,,,
18111,44055,,Højsmarkevej (Tårsvej),,54.87966964862701,11.073755645445,0,,,
18114,44175,,Utterslev gl. skole (Bøgetvej),,54.931167316151,11.194414239475,0,,,
18115,44177,,Gallevej,,54.911956274496,11.195521693689,0,,,
18116,40712,,Vink - Hellinge (Maribovej),,54.843296505627,11.263705439737999,0,,,
18117,44237,,Vink - Stengårdsvej (Stensgårdsvej),,54.770051937352,11.258493444539,0,,,
18118,44238,,Vink - Nybølle (Nøbbøllevej),,54.77895620862,11.281274910947001,0,,,
18143,45829,,"Lolland Kommune, Borgerservice (Søvej)",,54.835049273652004,11.138552725225,0,,,
18144,46392,,Kirstinehøjvej (Bursøvej),,54.738090362254,11.483914367068,0,,,
18147,48095,,Svingelsvej (Bregnevej),,54.836954173751,11.144197559503,0,,,
18162,48831,,Vink - Vindeby (Toftevej),,54.921852386952,11.155390988225,0,,,
18250,100220055,,Nørreballe ,,54.806233996173,11.431431201858,0,,,
18257,50254,,Bellisvej (Kløvervænget),,54.840487855154,11.144135776700999,0,,,
18258,50255,,Valmuevej (Enebærvej),,54.84252994390099,11.138948443193,0,,,
18366,50484,,Svingelsvej (Rosenvænget),,54.838544214105994,11.147303219997001,0,,,
18370,50486,,Sundhedscentret (Fayesvej),,54.834471711371,11.147336114094,0,,,
18599,50733,,Hvedevænget (Tårsvej),,54.842298084019006,11.123485480924002,0,,,
18600,50734,,Branderslevvej (Tårsvej),,54.861816553022,11.115535675697998,0,,,
18603,50731,,Skotterup (Højevej),,54.831176581351,11.162311823866,0,,,
18663,50861,,Slagterivej (Museumsgade),,54.776365666577995,11.509789303552001,0,,,
18718,51016,,Bandholm Vænge (Lindstrømsvej),,54.836149875914,11.479453994975,0,,,
18758,51104,,Skyttevej (Abedvej),,54.826651650738,11.323947684339002,0,,,
18760,51110,,Vink - Halstedhus (Halstedhus Vej),,54.849129120775004,11.234666956542,0,,,
18761,51111,,Halstedhus (Rudbjergvej),,54.849056995811004,11.234678546687,0,,,
18762,51112,,Ørsløkkevej (Nakskovvej),,54.916742919237,11.237149527320001,0,,,
18763,51113,,Ørsløkkevej (Nakskovvej),,54.91674263217399,11.23716511582,0,,,
18771,51121,,"Maribo Skole, Østofte afd. (Østofte Gade)",,54.800765345292994,11.425298714463,0,,,
18826,51362,,Birkevænget (Bregnevej),,54.838643144821994,11.138135430969,0,,,
18827,51367,,Christiansdalsvej (Tårsvej),,54.839435472001,11.124752377284,0,,,
18828,51368,,Bådesgaardsvej (Skodsebøllevej),,54.776426732391,11.227794681117,0,,,
18865,51370,,Nedergårdsvej (Tårsvej),,54.847041410045996,11.121585034136,0,,,
18866,51371,,Græshavevej (Højrebyvej),,54.810166042414,11.211878247855001,0,,,
18867,51372,,Søllested St. (Jernbanegade),,54.810709126677,11.271033727944,0,,,
18868,51373,,Tårsvej (Christiansdalsvej),,54.839507518908995,11.127310332999999,0,,,
18869,51374,,Jødevej (Bregnevej),,54.840151700278994,11.131580482598,0,,,
18870,51375,,Næsby (Vestenskovvej),,54.774077464046,11.075999347302,0,,,
18871,51376,,Vesternæs (Vesternæsvej),,54.775865858909995,11.010394523626001,0,,,
18908,51411,,Vink - Næsby Strand (Rolandsvej),,54.752428579869004,11.066235104495,0,,,
18912,51417,,Nakskov St.,,54.833104707642,11.139742347994002,0,,,
18913,51418,,Nakskov St.,,54.833155643586,11.139402463476,0,,,
18914,51419,,Nakskov St. (Perlestikkergade),,54.832973221512006,11.140062397211,0,,,
18915,51420,,Nakskov St. (Perlestikkergade),,54.83300455177201,11.139814907277,0,,,
18916,51421,,Nakskov St. (Perlestikkergade),,54.833045136199,11.139552334830999,0,,,
18919,51426,,Langøparken (Langøvej),,54.80943265851,11.017228010576,0,,,
18920,51427,,Vesternæs Strandvej (Vesternæsvej),,54.780719003611004,10.994648683408,0,,,
18921,51428,,Sjunkeby (Sjunkebyvej),,54.777187809394,11.054341987581001,0,,,
18924,51438,,Skolevænget (Birkevænget),,54.794353416134,11.521514873192999,0,,,
18925,51439,,Skolevænget (Birkevænget),,54.794354385275,11.521468258682999,0,,,
18973,51484,,Højagervej (Bøgetvej),,54.924491993562,11.191241442806001,0,,,
18988,51534,,Karlstoftevej (Kongeleddet),,54.668987670243,11.365338763373,0,,,
18989,51535,,Karlstoftevej (Kongeleddet),,54.668997957171,11.364812032474001,0,,,
18990,51538,,Græshave (Græshavevej),,54.774993454261,11.216240195122001,0,,,
18996,51537,,Baldersvej (Skandsen),,54.827491536822,11.133342107936,0,,,
19017,51583,,Mølle Allé (Tårsvej),,54.834957881971995,11.128924101257,0,,,
19023,51593,,Hoskiærsvej (Løjtoftevej),,54.833120922202,11.149506728413,0,,,
19807,52083,,Tågerupvej (Ladhavevej),,54.674137797629996,11.443709062667999,0,,,
19818,52102,,Rødbyvej (Kirkevejen),,54.7540411489,11.446625449,0,,,
19825,52119,,Vink - Vindø (Vindøvej),,54.870978734435994,11.05253301852,0,,,
19826,52120,,Vink - Egholm Strandvej (Egholmvej),,54.927051086876,11.297471244275,0,,,
20285,52266,,Rødby Rutebilstation,,54.696938197250006,11.391316746377,0,,,
20313,52303,,Ud 214 Telebus zone (Haubøllevej),,54.786886309888,11.304011161138,0,,,
20314,52304,,Ind 217 Telebus zone (Keldernæs Hovvej),,54.861370193687,11.37766615046,0,,,
20315,52305,,Ud 217 Telebus zone (Koldingevej),,54.804977298100994,11.387439935643,0,,,
20316,52306,,Ind 225 Telebus zone (Koldingevej),,54.799584644858996,11.405591411087999,0,,,
20317,52307,,Ud 225 Telebus zone (Nørremosevej),,54.775208756848,11.408140577414,0,,,
20318,52308,,Ud 212 Telebus zone (Fynbovej),,54.927146277159004,11.217358056701,0,,,
20319,52309,,Ind 213 Telebus zone (Kapellanvej),,54.888151110533,11.297236405213,0,,,
20320,52310,,Ud 213 Telebus zone (Nakskovvej),,54.908659969803,11.292694503799,0,,,
20351,52371,,Ud 224 Telebus zone (Runestensvej),,54.71706226559,11.375948649536,0,,,
20375,52452,,Løjtoftevej 201 (Løjtoftevej),,54.844235348114005,11.157371754298,0,,,
24822,52636,,Niels Nielsensgade 19 (Niels Nielsensgade),,54.833249901691,11.129955354210999,0,,,
30388,52783,,Vesterborgvej (Rudbjergvej),,54.864761669991,11.261807026747999,0,,,
30885,52910,,Tokkeløkkevej (Knuthenborgvej),,54.789932468404,11.504936331547,0,,,
30887,52912,,Løjtoftevej (Ringvejen),,54.83556548762999,11.153078258636999,0,,,
37017,52946,,Bækkevej (Højrebygade),,54.809764382192,11.272521477798,0,,,
37024,52969,,Kasbækvej (Viemosevej),,54.924851701183,11.256063442349,0,,,
37025,52970,,Nakskovvej (Hedemøllevej),,54.89488561043,11.195076120238,0,,,
37048,52983,,Vink - Torslundevej (Torslundevej),,54.707637441681996,11.488976006408999,0,,,
37049,52990,,"Vink - Hvilested, Rødbyvej (Bjerreskovvej)",,54.789973106571,11.28147539356,0,,,
37066,53014,,Rolighedsvej,,54.837211013556995,11.471062066707999,0,,,
37609,52989,,Keldernæs Skovvej (Havløkkevej),,54.836004348534004,11.394488967764001,0,,,
37742,53249,,Maribo Landevej nr. 4 (Maribo Landevej),,54.721033917669004,11.430426293074,0,,,
37743,53250,,Maribo Landevej nr. 4 (Maribo Landevej),,54.720910704012006,11.430294679651999,0,,,
37744,53252,,Nakskov Byskole (Nørrevold),,54.832761865744,11.134710138808,0,,,
37891,53369,,Hagesvej (Rødbyvej),,54.82698732008701,11.146642944823,0,,,
38108,53589,,Vink - Vesterborgvej (Rudbjergvej),,54.864761960032,11.261791458568,0,,,
